{"result":{"offset":0,"limit":10000,"count":368,"sort":"","results":[{"_id":"1","iid":"339","sna":"捷運市政府站(3號出口)","sarea":"信義區","lat":"25.0408578889","lng":"121.567904444","ar":"忠孝東路/松仁路(東南側)"},{"_id":"2","iid":"340","sna":"捷運國父紀念館站(2號出口)","sarea":"大安區","lat":"25.041","lng":"121.556945","ar":"忠孝東路四段/光復南路口(西南側)"},{"_id":"3","iid":"341","sna":"台北市政府","sarea":"信義區","lat":"25.0377972222","lng":"121.565169444","ar":"台北市政府東門(松智路) "},{"_id":"4","iid":"342","sna":"市民廣場","sarea":"信義區","lat":"25.0360361111","lng":"121.562325","ar":"市府路/松壽路(西北側) "},{"_id":"5","iid":"343","sna":"興雅國中","sarea":"信義區","lat":"25.0365638889","lng":"121.5686639","ar":"松仁路/松仁路95巷(東南側)"},{"_id":"6","iid":"344","sna":"世貿二館","sarea":"信義區","lat":"25.0347361111","lng":"121.565658333","ar":"松智路/松廉路(東北側) "},{"_id":"7","iid":"345","sna":"信義廣場(台北101)","sarea":"信義區","lat":"25.0330388889","lng":"121.565619444","ar":"松智路/信義路(東北側) "},{"_id":"8","iid":"346","sna":"世貿三館","sarea":"信義區","lat":"25.0352138889","lng":"121.563688889","ar":"市府路/松壽路(東南側) "},{"_id":"9","iid":"347","sna":"松德站","sarea":"信義區","lat":"25.03159","lng":"121.574353","ar":"台北市信義區松德路300號"},{"_id":"10","iid":"348","sna":"台北市災害應變中心","sarea":"信義區","lat":"25.0286611111","lng":"121.566116667","ar":"台北市信義區莊敬路391巷11弄2號"},{"_id":"11","iid":"349","sna":"三張犁","sarea":"信義區","lat":"25.034937","lng":"121.55762","ar":"光復南路/基隆路一段364巷"},{"_id":"12","iid":"350","sna":"臺北醫學大學","sarea":"信義區","lat":"25.026679","lng":"121.561747","ar":"台北醫學大學(吳興街220巷59弄)"},{"_id":"13","iid":"351","sna":"福德公園","sarea":"信義區","lat":"25.03809","lng":"121.58367","ar":"大道路/福德街路口北西側"},{"_id":"14","iid":"352","sna":"榮星花園","sarea":"中山區","lat":"25.06424","lng":"121.54037","ar":"五常街/龍江路口(西南側)"},{"_id":"15","iid":"353","sna":"饒河夜市","sarea":"松山區","lat":"25.049845","lng":"121.571885","ar":"八德路/松信路(西南側)"},{"_id":"16","iid":"354","sna":"松山家商","sarea":"信義區","lat":"25.036084","lng":"121.579135","ar":"林口街/福德街(南東側)"},{"_id":"17","iid":"355","sna":"民生光復路口","sarea":"松山區","lat":"25.05840","lng":"121.55504","ar":"光復北路/民生東路(西北側)"},{"_id":"18","iid":"356","sna":"社教館","sarea":"松山區","lat":"25.048268","lng":"121.552278","ar":"八德路三段25號前"},{"_id":"19","iid":"357","sna":"中強公園","sarea":"信義區","lat":"25.02863","lng":"121.56981","ar":"松仁路153巷17號對面"},{"_id":"20","iid":"358","sna":"捷運科技大樓站","sarea":"大安區","lat":"25.025896","lng":"121.543293","ar":"科技大樓站對面(復興南路2段西側)"},{"_id":"21","iid":"359","sna":"民生敦化路口","sarea":"松山區","lat":"25.057985","lng":"121.548982","ar":"敦化民生路口公車站旁"},{"_id":"22","iid":"360","sna":"松山車站","sarea":"松山區","lat":"25.048616","lng":"121.578095","ar":"松山車站西出口外自行車格內"},{"_id":"23","iid":"361","sna":"東新國小","sarea":"南港區","lat":"25.055074","lng":"121.602798","ar":"東新國小側門(東明街62號前)"},{"_id":"24","iid":"362","sna":"信義建國路口","sarea":"大安區","lat":"25.032981","lng":"121.537328","ar":"信義路三段/建國南路二段(西南側)"},{"_id":"25","iid":"363","sna":"永吉松信路口","sarea":"信義區","lat":"25.04543","lng":"121.57205","ar":"松信路/永吉路南西側人行道"},{"_id":"26","iid":"364","sna":"捷運昆陽站(1號出口)","sarea":"南港區","lat":"25.050142","lng":"121.592375","ar":"捷運昆陽站1號出口外停車場旁"},{"_id":"27","iid":"365","sna":"捷運南港展覽館站(5號出口)","sarea":"南港區","lat":"25.05469","lng":"121.61669","ar":"研究院路/市民大道(東北側)"},{"_id":"28","iid":"366","sna":"五常公園","sarea":"信義區","lat":"25.04814","lng":"121.57467","ar":"松隆路/虎林街30巷口(西南側)"},{"_id":"29","iid":"367","sna":"金山愛國路口","sarea":"大安區","lat":"25.03164","lng":"121.52655","ar":"愛國東路/金山南路(西南側)"},{"_id":"30","iid":"368","sna":"基隆長興路口","sarea":"大安區","lat":"25.017054","lng":"121.544352","ar":"基隆路/長興街(東南側)"},{"_id":"31","iid":"369","sna":"辛亥新生路口","sarea":"大安區","lat":"25.022413","lng":"121.53456","ar":"辛亥路/新生南路(高架橋下)"},{"_id":"32","iid":"370","sna":"捷運六張犁站","sarea":"大安區","lat":"25.023884","lng":"121.553161","ar":"捷運出口外和平東路側"},{"_id":"33","iid":"371","sna":"中崙高中","sarea":"松山區","lat":"25.04878","lng":"121.56087","ar":"八德路四段91巷(中崙高中)旁"},{"_id":"34","iid":"372","sna":"捷運行天宮站(1號出口)","sarea":"中山區","lat":"25.058369","lng":"121.532934","ar":"捷運行天宮1號出口後方(松江路側)"},{"_id":"35","iid":"373","sna":"捷運行天宮站(3號出口)","sarea":"中山區","lat":"25.059978","lng":"121.533302","ar":"捷運行天宮站3號出口站外"},{"_id":"36","iid":"374","sna":"臺大資訊大樓","sarea":"大安區","lat":"25.02101","lng":"121.54153","ar":"辛亥路二段(臺大外語學院外)"},{"_id":"37","iid":"375","sna":"捷運東門站(4號出口)","sarea":"大安區","lat":"25.033700","lng":"121.529166 ","ar":"信義路/麗水街口"},{"_id":"38","iid":"376","sna":"臺灣師範大學(圖書館)","sarea":"大安區","lat":"25.02665","lng":"121.52889","ar":"和平東路/師大路口(北側)"},{"_id":"39","iid":"377","sna":"南港世貿公園","sarea":"南港區","lat":"25.058","lng":"121.61422","ar":"三重路/經貿二路88巷(東北側)"},{"_id":"40","iid":"378","sna":"玉成公園","sarea":"南港區","lat":"25.04287","lng":"121.58640","ar":"玉成街247號前"},{"_id":"41","iid":"379","sna":"中研公園","sarea":"南港區","lat":"25.047425","lng":"121.613706","ar":"研究院路二段12巷/研究院路二段12巷58弄(西南側)"},{"_id":"42","iid":"380","sna":"捷運後山埤站(1號出口)","sarea":"南港區","lat":"25.04431","lng":"121.58174","ar":"中坡北路/忠孝東路五段(西北側)"},{"_id":"43","iid":"381","sna":"凌雲市場","sarea":"南港區","lat":"25.035639","lng":"121.614154","ar":"研究院路三段68巷/凌雲街(東北側)"},{"_id":"44","iid":"382","sna":"捷運南港軟體園區站(2號出口)","sarea":"南港區","lat":"25.05973","lng":"121.616187","ar":"捷運南港軟體園區站2號出口外"},{"_id":"45","iid":"383","sna":"捷運公館站(2號出口)","sarea":"大安區","lat":"25.01476  ","lng":"121.534538 ","ar":"羅斯福路四段/舟山路(東北側)"},{"_id":"46","iid":"384","sna":"南港國小","sarea":"南港區","lat":"25.05646","lng":"121.611027 ","ar":"惠民街/興東街(南側停車場)"},{"_id":"47","iid":"385","sna":"捷運忠孝新生(3號出口)","sarea":"大安區","lat":"25.041924 ","lng":"121.533862  ","ar":"捷運忠孝新生(3號出口)"},{"_id":"48","iid":"386","sna":"南港車站","sarea":"南港區","lat":"25.05247","lng":"121.608202","ar":"忠孝東路七段與忠孝東路七段415巷交叉口"},{"_id":"49","iid":"387","sna":"龍門廣場","sarea":"大安區","lat":"25.040901","lng":"121.548252  ","ar":"忠孝東路/敦化南路(西南側廣場）"},{"_id":"50","iid":"388","sna":"民權運動公園","sarea":"松山區","lat":"25.062002","lng":"121.560186","ar":"民權東路四段/新中街交叉口"},{"_id":"51","iid":"389","sna":"建國農安街口","sarea":"中山區","lat":"25.065031","lng":"121.536775  ","ar":"建國北路/農安街口(中油旁邊空地)"},{"_id":"52","iid":"390","sna":"建國長春路口","sarea":"中山區","lat":"25.054761","lng":"121.536925","ar":"建國北路/長春路口(北側)"},{"_id":"53","iid":"391","sna":"八德市場","sarea":"中山區","lat":"25.044781","lng":"121.536609","ar":"建國南路一段/市民大道交叉口(北側) "},{"_id":"54","iid":"392","sna":"臺北市立圖書館(總館)","sarea":"大安區","lat":"25.028798","lng":"121.538073","ar":"建國南路二段/建國南路二段151巷(東北側)"},{"_id":"55","iid":"393","sna":"臺北田徑場","sarea":"松山區","lat":"25.049505","lng":"121.549408","ar":"敦化北路3號"},{"_id":"133","iid":"471","sna":"蘭興公園","sarea":"士林區","lat":"25.111839","lng":"121.525888","ar":"中山北路六段/士東路(西北側)"},{"_id":"56","iid":"394","sna":"仁愛林森路口","sarea":"中正區","lat":"25.038954","lng":"121.522334","ar":"林森南路/仁愛路一段路口(東北側)"},{"_id":"57","iid":"395","sna":"新生和平路口","sarea":"大安區","lat":"25.026217","lng":"121.53519","ar":"新生南路二段/和平東路二段(東北側)"},{"_id":"58","iid":"396","sna":"捷運善導寺站(1號出口)","sarea":"中正區","lat":"25.045267","lng":"121.522200 ","ar":"天津街/忠孝東路一段(東北側)"},{"_id":"59","iid":"397","sna":"林森公園","sarea":"中山區","lat":"25.052227","lng":"121.525805 ","ar":"林森北路/南京東路一段"},{"_id":"60","iid":"398","sna":"中山行政中心","sarea":"中山區","lat":"25.064317","lng":"121.533487 ","ar":"松江路/農安街口"},{"_id":"61","iid":"399","sna":"台灣科技大學","sarea":"大安區","lat":"25.0131","lng":"121.539723 ","ar":"基隆路四段/基隆路四段73巷交叉口"},{"_id":"62","iid":"400","sna":"南昌公園","sarea":"中正區","lat":"25.026827","lng":"121.520258","ar":"和平西路一段/南昌路"},{"_id":"63","iid":"401","sna":"仁愛醫院","sarea":"大安區","lat":"25.037569","lng":"121.545632","ar":"大安路一段/仁愛路四段"},{"_id":"64","iid":"402","sna":"國家圖書館","sarea":"中正區","lat":"25.037773","lng":"121.517029","ar":"中山南路/貴陽街口(西南側)"},{"_id":"65","iid":"403","sna":"青年公園3號出口","sarea":"萬華區","lat":"25.022725","lng":"121.502708 ","ar":"青年路/青年路106巷(東側)"},{"_id":"66","iid":"404","sna":"師範大學公館校區","sarea":"文山區","lat":"25.007528","lng":"121.537188 ","ar":"師大公館校區校門口(汀州路側)"},{"_id":"67","iid":"405","sna":"捷運臺大醫院(4號出口)","sarea":"中正區","lat":"25.042973","lng":"121.516428","ar":"公園路/襄陽路(西南側)"},{"_id":"68","iid":"406","sna":"國興青年路口","sarea":"萬華區","lat":"25.025865","lng":"121.506536","ar":"國興路/青年路(西南側)"},{"_id":"69","iid":"407","sna":"興豐公園","sarea":"文山區","lat":"24.999837","lng":"121.547778","ar":"興隆路二段123巷/興隆路二段(西北側)"},{"_id":"70","iid":"408","sna":"捷運台北101/世貿站","sarea":"信義區","lat":"25.032752","lng":"121.561645","ar":"莊敬路/信義線五段(東南側)"},{"_id":"71","iid":"409","sna":"捷運信義安和站","sarea":"大安區","lat":"25.032985","lng":"121.554204","ar":"通化街/信義路四段(西南側)"},{"_id":"72","iid":"410","sna":"新生長安路口","sarea":"中山區","lat":"25.048611","lng":"121.529346","ar":"新生北路一段/長安東路二段交叉口(北側)"},{"_id":"73","iid":"411","sna":"酒泉延平路口","sarea":"大同區","lat":"25.072228","lng":"121.510195","ar":"延平北路四段/酒泉街(西北側)"},{"_id":"74","iid":"412","sna":"信義連雲街口","sarea":"中正區","lat":"25.033817","lng":"121.530547","ar":"信義路二段/連雲街(東北側)"},{"_id":"75","iid":"413","sna":"基隆光復路口","sarea":"信義區","lat":"25.0300508","lng":"121.557635","ar":"基隆路二段/光復南路(東北側)"},{"_id":"76","iid":"414","sna":"新生長春路口","sarea":"中山區","lat":"25.056387","lng":"121.527522","ar":"新生北路二段/新生北路二段68巷交叉口(新生橋下)"},{"_id":"77","iid":"415","sna":"民生活動中心","sarea":"松山區","lat":"25.059147","lng":"121.56297","ar":"民生東路五段/三民路口(西北側)"},{"_id":"78","iid":"416","sna":"捷運圓山站(2號出口)","sarea":"大同區","lat":"25.071824","lng":"121.519287","ar":"承德路三段/庫倫街(東南側)"},{"_id":"79","iid":"417","sna":"捷運民權西路站(3號出口)","sarea":"大同區","lat":"25.061285","lng":"121.520205","ar":"民權西路70巷37號對面"},{"_id":"80","iid":"418","sna":"華江高中","sarea":"萬華區","lat":"25.02751","lng":"121.495869","ar":"東園街/東園街35巷(東北側)"},{"_id":"81","iid":"419","sna":"捷運台電大樓站(2號出口)","sarea":"大安區","lat":"25.020547","lng":"121.528552","ar":"羅斯福路/辛亥路交叉口(古亭國小前)"},{"_id":"82","iid":"420","sna":"捷運西門站(3號出口)","sarea":"中正區","lat":"25.041778","lng":"121.508693 ","ar":"中華路一段/寶慶路(東南側)"},{"_id":"83","iid":"421","sna":"捷運大安森林公園站","sarea":"大安區","lat":"25.033156","lng":"121.535161","ar":"信義路三段31巷/信義路三段(南側)"},{"_id":"84","iid":"422","sna":"復華花園新城","sarea":"萬華區","lat":"25.029705","lng":"121.502899","ar":"西藏路115號/西藏路(東南側)"},{"_id":"85","iid":"423","sna":"信義敦化路口","sarea":"大安區","lat":"25.033362","lng":"121.54911","ar":"信義路四段/敦化南路一段(東北側)"},{"_id":"86","iid":"424","sna":"民權復興路口","sarea":"松山區","lat":"25.062344","lng":"121.545138","ar":"復興北路/民權東路三段(東北側)"},{"_id":"169","iid":"619","sna":"植物園","sarea":"中正區","lat":"25.030015","lng":"121.509813","ar":"和平西路二段100號前"},{"_id":"87","iid":"425","sna":"捷運大安站","sarea":"大安區","lat":"25.033078","lng":"121.543057","ar":"復興南路/信義路三段(西南側)"},{"_id":"88","iid":"426","sna":"捷運象山站","sarea":"信義區","lat":"25.032835","lng":"121.571274","ar":"信義路五段/信義路五段91巷(西北側)"},{"_id":"89","iid":"427","sna":"和平重慶路口","sarea":"中正區","lat":"25.027323","lng":"121.516385","ar":"重慶南路三段/和平西路一段(東北側)"},{"_id":"90","iid":"428","sna":"老松國小","sarea":"萬華區","lat":"25.037783","lng":"121.501708","ar":"康定路/桂林路(東南側)"},{"_id":"91","iid":"429","sna":"市立美術館","sarea":"中山區","lat":"25.070629","lng":"121.523268","ar":"中山北路三段/酒泉街(西南側)"},{"_id":"92","iid":"430","sna":"開封西寧路口","sarea":"萬華區","lat":"25.046618","lng":"121.507169","ar":"開封街二段/西寧南路(東北側)"},{"_id":"93","iid":"431","sna":"吳興公車總站","sarea":"信義區","lat":"25.023877","lng":"121.569836","ar":"松仁路/吳興街交叉口"},{"_id":"94","iid":"432","sna":"捷運景美站","sarea":"文山區","lat":"24.993254","lng":"121.541059","ar":"羅斯福路六段/景中街交叉口(東北側)"},{"_id":"95","iid":"433","sna":"東園國小","sarea":"萬華區","lat":"25.023393","lng":"121.497679","ar":"東園街/萬大路344巷(東南側)"},{"_id":"96","iid":"434","sna":"三民公園","sarea":"松山區","lat":"25.061567","lng":"121.566558","ar":"撫遠街/富錦街(東南側)"},{"_id":"97","iid":"435","sna":"捷運劍潭站(2號出口)","sarea":"士林區","lat":"25.082825","lng":"121.524721","ar":"基河路18號對面"},{"_id":"98","iid":"436","sna":"羅斯福景隆街口","sarea":"文山區","lat":"24.999378","lng":"121.540197","ar":"羅斯福路六段/景隆街交叉口(東南側)"},{"_id":"99","iid":"437","sna":"捷運雙連站(2號出口)","sarea":"大同區","lat":"25.057866","lng":"121.520711","ar":"民生西路/萬全街(東北側)"},{"_id":"100","iid":"438","sna":"金山市民路口","sarea":"中正區","lat":"25.045753","lng":"121.530697","ar":"金山北路/市民大道三段(南側)"},{"_id":"101","iid":"439","sna":"華山文創園區","sarea":"中正區","lat":"25.043668","lng":"121.528487","ar":"忠孝東路二段41號前"},{"_id":"102","iid":"440","sna":"臺北市客家文化主題公園","sarea":"中正區","lat":"25.02043","lng":"121.525322","ar":"師大路/汀州路交叉口"},{"_id":"103","iid":"441","sna":"萬大興寧街口","sarea":"萬華區","lat":"25.031974","lng":"121.500474","ar":"萬大路/興寧街(西南側)"},{"_id":"104","iid":"442","sna":"台北花木批發市場","sarea":"文山區","lat":"25.004023","lng":"121.54074","ar":"萬盛街/興隆路一段(西北側)"},{"_id":"105","iid":"443","sna":"峨嵋停車場","sarea":"萬華區","lat":"25.044412","lng":"121.505409","ar":"昆明街/西寧南路50巷(東南側)"},{"_id":"106","iid":"444","sna":"西園艋舺路口","sarea":"萬華區","lat":"25.032932","lng":"121.497674","ar":"西園路二段/艋舺大道(西南側)"},{"_id":"107","iid":"445","sna":"捷運小南門站(1號出口)","sarea":"中正區","lat":"25.036402","lng":"121.509422","ar":"博愛路/愛國西路交叉口(西北側)"},{"_id":"108","iid":"446","sna":"臺北孔廟","sarea":"大同區","lat":"25.073306","lng":"121.515843","ar":"哈密街59巷/哈密街(東北側)"},{"_id":"109","iid":"447","sna":"林安泰古厝","sarea":"中山區","lat":"25.071606","lng":"121.530805","ar":"吉林路/民族東路(北側)"},{"_id":"110","iid":"448","sna":"文湖國小","sarea":"內湖區","lat":"25.086376","lng":"121.560888","ar":"文湖街21巷/文湖街(東北側)"},{"_id":"111","iid":"449","sna":"捷運忠孝復興站(2號出口)","sarea":"大安區","lat":"25.040184","lng":"121.543497","ar":"復興南路一段/仁愛路三段123巷13弄(西北側)"},{"_id":"112","iid":"450","sna":"捷運新北投站","sarea":"北投區","lat":"25.137456","lng":"121.503124","ar":"大業路/中和街交叉口"},{"_id":"113","iid":"451","sna":"仁愛逸仙路口","sarea":"信義區","lat":"25.037724","lng":"121.561178","ar":"仁愛路四段/逸仙路(西北側)"},{"_id":"114","iid":"452","sna":"蘭雅公園","sarea":"士林區","lat":"25.109908","lng":"121.530386","ar":"忠誠路二段/忠誠路二段40巷(西南側)"},{"_id":"115","iid":"453","sna":"臺北轉運站","sarea":"中正區","lat":"25.048222","lng":"121.520526","ar":"中山北路一段/市民大道一段(西北側)"},{"_id":"116","iid":"454","sna":"福林公園","sarea":"士林區","lat":"25.096122","lng":"121.530215","ar":"志成街/中正路(南側)"},{"_id":"117","iid":"455","sna":"捷運北投站","sarea":"北投區","lat":"25.132581","lng":"121.498618","ar":"光明路2巷/光明路交叉口"},{"_id":"118","iid":"456","sna":"大業大同街口","sarea":"北投區","lat":"25.136929","lng":"121.499152","ar":"大業路/大同街口"},{"_id":"119","iid":"457","sna":"捷運劍南路站(2號出口)","sarea":"中山區","lat":"25.08418","lng":"121.555116","ar":"敬業二路/植福路(東北側)"},{"_id":"132","iid":"470","sna":"羅斯福新生南路口","sarea":"大安區","lat":"25.01603085","lng":"121.5331757","ar":"羅斯福路四段/新生南路三段交叉口"},{"_id":"120","iid":"458","sna":"捷運龍山寺站(1號出口)","sarea":"萬華區","lat":"25.035479","lng":"121.50026","ar":"和平西路三段/和平西路三段109巷(西北側)"},{"_id":"121","iid":"459","sna":"龍江南京路口","sarea":"中山區","lat":"25.05298","lng":"121.540568","ar":"龍江路110號對面停車場"},{"_id":"122","iid":"460","sna":"捷運港墘站(2號出口)","sarea":"內湖區","lat":"25.079681","lng":"121.575458","ar":"內湖路一段/港墘路(東南側)"},{"_id":"123","iid":"461","sna":"天母運動公園","sarea":"士林區","lat":"25.116325","lng":"121.534136","ar":"忠誠路二段/忠誠路二段207巷(東南側)"},{"_id":"124","iid":"462","sna":"振華公園","sarea":"北投區","lat":"25.115863","lng":"121.518163","ar":"振華街36號對面"},{"_id":"125","iid":"463","sna":"華西公園","sarea":"萬華區","lat":"25.038609","lng":"121.498495","ar":"華西街/桂林路(東北側)"},{"_id":"126","iid":"464","sna":"敦化基隆路口","sarea":"大安區","lat":"25.022073","lng":"121.548336","ar":"敦化南路二段/基隆路二段交叉口"},{"_id":"127","iid":"465","sna":"東湖國中","sarea":"內湖區","lat":"25.073277","lng":"121.619521","ar":"康樂街/康樂街125巷(東南側)"},{"_id":"128","iid":"466","sna":"成功國宅","sarea":"大安區","lat":"25.026808","lng":"121.546726","ar":"四維路198巷/和平東路三段1巷"},{"_id":"129","iid":"467","sna":"捷運文德站(2號出口)","sarea":"內湖區","lat":"25.078292","lng":"121.585264","ar":"文德路220巷/文德路(西南側)"},{"_id":"130","iid":"468","sna":"羅斯福寧波東街口","sarea":"中正區","lat":"25.031445","lng":"121.519411","ar":"羅斯福路一段/寧波東街(東南側)"},{"_id":"131","iid":"469","sna":"洲子二號公園","sarea":"內湖區","lat":"25.079322","lng":"121.568688","ar":"瑞光路500號對面"},{"_id":"134","iid":"472","sna":"捷運芝山站(2號出口)","sarea":"士林區","lat":"25.10336","lng":"121.522629","ar":"福華路/福華路162巷(東南側)"},{"_id":"135","iid":"473","sna":"捷運石牌站(2號出口)","sarea":"北投區","lat":"25.114513","lng":"121.515677","ar":"東華街一段/裕民二路(西側)\t"},{"_id":"136","iid":"474","sna":"國立臺北護理健康大學","sarea":"北投區","lat":"25.118049","lng":"121.517512","ar":"石牌路二段130巷/石牌路二段(東南側)"},{"_id":"137","iid":"475","sna":"國防大學","sarea":"北投區","lat":"25.137976","lng":"121.493066","ar":"中央北路二段/豐年路二段交叉口"},{"_id":"138","iid":"476","sna":"捷運永春站(2號出口)","sarea":"信義區","lat":"25.040558","lng":"121.575372","ar":"忠孝東路五段420號旁(東側巷道上)"},{"_id":"139","iid":"477","sna":"永樂市場","sarea":"大同區","lat":"25.054501","lng":"121.510549","ar":"民樂街/南京西路233巷(西北側)"},{"_id":"140","iid":"478","sna":"捷運大橋頭站(2號出口)","sarea":"大同區","lat":"25.063404","lng":"121.512909","ar":"民權西路/重慶北路三段(東北側)"},{"_id":"141","iid":"479","sna":"文山行政中心","sarea":"文山區","lat":"24.989902","lng":"121.569984","ar":"木柵路三段220號前"},{"_id":"142","iid":"480","sna":"捷運木柵站","sarea":"文山區","lat":"24.997747","lng":"121.574214","ar":"木柵路四段82巷18號前(捷運橋樑下)"},{"_id":"143","iid":"481","sna":"捷運動物園站(2號出口)","sarea":"文山區","lat":"24.997659","lng":"121.578752","ar":"新光路二段28號前"},{"_id":"144","iid":"482","sna":"國立政治大學","sarea":"文山區","lat":"24.988363","lng":"121.576536","ar":"萬壽路16巷6號前"},{"_id":"145","iid":"483","sna":"樹德公園","sarea":"大同區","lat":"25.066688","lng":"121.516149","ar":"大龍街/大龍街85巷(東北側)"},{"_id":"146","iid":"484","sna":"捷運士林站(2號出口)","sarea":"士林區","lat":"25.092546","lng":"121.526556","ar":"中正路247巷/中山北路五段505巷(東南側)"},{"_id":"147","iid":"485","sna":"士林運動中心","sarea":"士林區","lat":"25.089175","lng":"121.521814","ar":"承德路四段/大南路(東北側)"},{"_id":"148","iid":"486","sna":"捷運明德站","sarea":"北投區","lat":"25.110331","lng":"121.518316","ar":"致遠一路一段46巷/西安街一段(東南側)"},{"_id":"149","iid":"487","sna":"北投運動中心","sarea":"北投區","lat":"25.116665","lng":"121.509621","ar":"石牌路一段39巷100號前"},{"_id":"150","iid":"488","sna":"松德公園","sarea":"信義區","lat":"25.036568","lng":"121.57343","ar":"松德路168巷20號前"},{"_id":"151","iid":"489","sna":"考試院","sarea":"文山區","lat":"24.987507","lng":"121.549827","ar":"試院路(雙號)/木柵路一段(東北側)"},{"_id":"152","iid":"490","sna":"百齡國小","sarea":"士林區","lat":"25.08521","lng":"121.519175","ar":"前港街100巷/前港街(北方)"},{"_id":"153","iid":"491","sna":"蔣渭水紀念公園","sarea":"大同區","lat":"25.059885","lng":"121.516299","ar":"錦西街51號對面"},{"_id":"154","iid":"492","sna":"中正基河路口","sarea":"士林區","lat":"25.093396","lng":"121.519867","ar":"中正路420號前"},{"_id":"155","iid":"493","sna":"瑞光港墘路口","sarea":"內湖區","lat":"25.076193","lng":"121.57505","ar":"瑞光路/港墘路(西南側)"},{"_id":"156","iid":"494","sna":"東湖國小","sarea":"內湖區","lat":"25.068409","lng":"121.615938","ar":"東湖路/東湖路119巷(西北側)"},{"_id":"157","iid":"495","sna":"麗山國小","sarea":"內湖區","lat":"25.082703","lng":"121.571467","ar":"內湖路一段411巷/內湖路一段411巷19弄(東北側)"},{"_id":"158","iid":"496","sna":"捷運東湖站","sarea":"內湖區","lat":"25.066635","lng":"121.613505","ar":"安康路315巷/五分街14巷(西側)"},{"_id":"159","iid":"497","sna":"捷運西湖站(1號出口)","sarea":"內湖區","lat":"25.082866","lng":"121.566695","ar":"環山路一段9巷/內湖路一段285巷(西南側)"},{"_id":"160","iid":"498","sna":"捷運中山站(4號出口)","sarea":"大同區","lat":"25.053082","lng":"121.52029","ar":"南京西路/南京西路25巷(東北側)"},{"_id":"161","iid":"508","sna":"大豐公園","sarea":"北投區","lat":"25.131143","lng":"121.503768","ar":"磺港路/大興街(東北側)"},{"_id":"162","iid":"544","sna":"捷運中山國小站(4號出口)","sarea":"中山區","lat":"25.062924","lng":"121.52772","ar":"民權東路一段/新生北路三段(北側)(新生高架橋下)"},{"_id":"163","iid":"565","sna":"捷運麟光站2號出口","sarea":"大安區","lat":"25.018097","lng":"121.559279","ar":"和平東路三段/和平東路三段416巷(捷運高架橋下)"},{"_id":"164","iid":"566","sna":"捷運奇岩站","sarea":"北投區","lat":"25.126286","lng":"121.500801","ar":"北投路一段/三合街二段(東北側)"},{"_id":"165","iid":"567","sna":"捷運唭哩岸站(2號出口)","sarea":"北投區","lat":"25.120788","lng":"121.505693","ar":"西安街二段/立農街一段257巷"},{"_id":"166","iid":"568","sna":"臺北市立景美女中","sarea":"文山區","lat":"24.980602","lng":"121.556177","ar":"木新路三段/一壽街(西北側)"},{"_id":"167","iid":"569","sna":"臺北市立天文館","sarea":"士林區","lat":"25.095714","lng":"121.518046","ar":"基河路363號前"},{"_id":"168","iid":"574","sna":"河堤國小","sarea":"中正區","lat":"25.02288","lng":"121.522855","ar":"金門街12巷23弄1號旁"},{"_id":"170","iid":"620","sna":"新東公園","sarea":"松山區","lat":"25.059245","lng":"121.568883","ar":"民生東路五段/塔悠路(西南側)"},{"_id":"171","iid":"621","sna":"文山運動中心","sarea":"文山區","lat":"24.996842","lng":"121.559651","ar":"興隆路三段/興隆路三段192巷8弄"},{"_id":"172","iid":"622","sna":"捷運南京三民站(1號出口)","sarea":"松山區","lat":"25.051518 ","lng":"121.563785 ","ar":"南京東路五段/三民路(西北側)"},{"_id":"173","iid":"623","sna":"捷運松江南京站(7號出口)","sarea":"中山區","lat":"25.052181 ","lng":"121.533211 ","ar":"松江路/南京東路二段(東北側)"},{"_id":"174","iid":"624","sna":"捷運小巨蛋站(5號出口)","sarea":"松山區","lat":"25.051702 ","lng":"121.553057 ","ar":"南京東路四段/健康路(東北側)"},{"_id":"175","iid":"625","sna":"捷運南京復興站(5號出口)","sarea":"松山區","lat":"25.051618 ","lng":"121.544847 ","ar":"南京東路三段/南京東路三段256巷(東南側)"},{"_id":"176","iid":"626","sna":"興安華城","sarea":"中山區","lat":"25.055997 ","lng":"121.542318 ","ar":"興安街/遼寧街"},{"_id":"177","iid":"627","sna":"葫蘆國小","sarea":"士林區","lat":"25.082538 ","lng":"121.507495 ","ar":"環河北路三段/葫蘆街(東北側)"},{"_id":"178","iid":"628","sna":"延平國宅","sarea":"士林區","lat":"25.078908 ","lng":"121.510306 ","ar":"延平北路五段一巷40號前"},{"_id":"179","iid":"629","sna":"南港公園","sarea":"南港區","lat":"25.041278 ","lng":"121.590885 ","ar":"福德街383號對面(南港公園出口前)"},{"_id":"180","iid":"630","sna":"福華商場","sarea":"內湖區","lat":"25.068770","lng":"121.592654","ar":"民權東路六段/民權東路六段180巷(石潭平面停車場內)"},{"_id":"215","iid":"599","sna":"仁愛廣場","sarea":"蘆洲區","lat":"25.090565","lng":"121.471621","ar":"民權路139號旁"},{"_id":"181","iid":"634","sna":"建國和平路口","sarea":"大安區","lat":"25.025850 ","lng":"121.537383 ","ar":"建國南路二段/和平東路二段(西北側)"},{"_id":"182","iid":"636","sna":"捷運古亭站(2號出口)","sarea":"中正區","lat":"25.025300 ","lng":"121.523537 ","ar":"羅斯福路二段/羅斯福路二段174巷(捷運古亭站2號出口前)"},{"_id":"183","iid":"638","sna":"圓環站","sarea":"大同區","lat":"25.053884 ","lng":"121.514549 ","ar":"南京西路/重慶北路一段(東南側)"},{"_id":"184","iid":"639","sna":"劍潭社區","sarea":"中山區","lat":"25.084759 ","lng":"121.537892 ","ar":"通北街143號前"},{"_id":"185","iid":"640","sna":"瑠公公園","sarea":"大安區","lat":"25.042342 ","lng":"121.546050 ","ar":"大安路一段/大安路一段75巷(西側)"},{"_id":"186","iid":"641","sna":"臺北市立大學","sarea":"中正區","lat":"25.035414 ","lng":"121.514218 ","ar":"愛國西路/公園路(西北側)"},{"_id":"187","iid":"642","sna":"仁愛延吉街口","sarea":"大安區","lat":"25.037465 ","lng":"121.555769 ","ar":"仁愛路四段/延吉街(東南側)"},{"_id":"188","iid":"643","sna":"社子國小","sarea":"士林區","lat":"25.090293 ","lng":"121.501890 ","ar":"延平北路六段/社中街(社子國小對面跨提便道橋下)"},{"_id":"189","iid":"644","sna":"金瑞公園(金龍路)","sarea":"內湖區","lat":"25.087848 ","lng":"121.587821 ","ar":"金龍路213巷1弄7號前"},{"_id":"190","iid":"645","sna":"捷運大直站(3號出口)","sarea":"中山區","lat":"25.079278 ","lng":"121.546683 ","ar":"北安路458巷41弄/北安路536巷(捷運大直站3號出口前人行道)"},{"_id":"191","iid":"646","sna":"捷運大湖公園站(2號出口)","sarea":"內湖區","lat":"25.083945 ","lng":"121.601854 ","ar":"成功路五段/大湖山莊街(大湖公園地下停車場旁)"},{"_id":"192","iid":"647","sna":"捷運葫洲站(1號出口)","sarea":"內湖區","lat":"25.072485 ","lng":"121.607955 ","ar":"康寧路三段/成功路五段450巷21弄(西北側)(捷運葫洲站1號出口前自行車停放區)"},{"_id":"193","iid":"648","sna":"舊莊區民活動中心","sarea":"南港區","lat":"25.041277 ","lng":"121.619350 ","ar":"舊莊街一段91巷/舊莊街一段91巷12弄(舊莊區民活動中心前)"},{"_id":"194","iid":"649","sna":"市民林森路口","sarea":"中山區","lat":"25.047958 ","lng":"121.524388 ","ar":"市民大道二段/林森北路(東北側)"},{"_id":"195","iid":"650","sna":"信義杭州路口(中華電信總公司)","sarea":"中正區","lat":"25.035851 ","lng":"121.523987 ","ar":"信義路一段/杭州南路一段(西北側)"},{"_id":"196","iid":"658","sna":"新湖國小","sarea":"內湖區","lat":"25.068744 ","lng":"121.589233 ","ar":"民權東路六段/成功路二段320巷31弄(東南側)"},{"_id":"197","iid":"535","sna":"大鵬華城","sarea":"新店區","lat":"24.99116","lng":"121.53398","ar":"新北市新店區中正路700巷3號"},{"_id":"198","iid":"536","sna":"汐止火車站","sarea":"汐止區","lat":"25.068914","lng":"121.662748","ar":"南昌街/新昌路口(西側廣場)"},{"_id":"199","iid":"537","sna":"汐止區公所","sarea":"汐止區","lat":"25.064162","lng":"121.658301","ar":"新台五路一段/仁愛路口(新台五路側汐止地政事務所前機車停車場)"},{"_id":"200","iid":"538","sna":"國泰綜合醫院","sarea":"汐止區","lat":"25.07315","lng":"121.662555","ar":"建成路78號對面停車場"},{"_id":"201","iid":"539","sna":"裕隆公園","sarea":"新店區","lat":"24.979649","lng":"121.546319","ar":"寶中路/品牌路口(東南側)"},{"_id":"202","iid":"540","sna":"捷運大坪林站","sarea":"新店區","lat":"24.983977","lng":"121.541721","ar":"寶安街/寶安街58巷(西北側)"},{"_id":"203","iid":"573","sna":"汐科火車站(北)","sarea":"汐止區","lat":"25.064106","lng":"121.653019","ar":"大同路二段184巷/龍安路202巷(西側)(汐科火車站北站出口前)"},{"_id":"204","iid":"579","sna":"興華公園","sarea":"三重區","lat":"25.060125","lng":"121.483101","ar":"重陽路一段120巷/中華路2巷"},{"_id":"205","iid":"580","sna":"三重國民運動中心","sarea":"三重區","lat":"25.054391","lng":"121.488489","ar":"集美街/重新路四段184巷"},{"_id":"206","iid":"581","sna":"捷運三重站(3號出口)","sarea":"三重區","lat":"25.055883","lng":"121.484739","ar":"捷運路/捷運路37巷"},{"_id":"207","iid":"582","sna":"樟樹國小","sarea":"汐止區","lat":"25.066688","lng":"121.640367","ar":"樟樹二路/樟樹一路141巷"},{"_id":"208","iid":"583","sna":"金龍國小","sarea":"汐止區","lat":"25.0688","lng":"121.628908","ar":"中興路/民族六街"},{"_id":"209","iid":"584","sna":"白雲國小","sarea":"汐止區","lat":"25.047578","lng":"121.618888","ar":"民權街二段90號"},{"_id":"210","iid":"585","sna":"東勢宜興活動中心","sarea":"汐止區","lat":"25.039031","lng":"121.624333","ar":"東勢街/芳園街"},{"_id":"211","iid":"595","sna":"後港公園","sarea":"新莊區","lat":"25.025358","lng":"121.428348","ar":"建安街/建安街57巷"},{"_id":"212","iid":"596","sna":"福營行政中心","sarea":"新莊區","lat":"25.0241250","lng":"121.423870","ar":"四維路17號-20號"},{"_id":"213","iid":"597","sna":"西盛公園","sarea":"新莊區","lat":"25.017113","lng":"121.428048","ar":"新莊區西盛街/西盛街201巷"},{"_id":"214","iid":"598","sna":"忠誠里(北新路2段97巷)","sarea":"新店區","lat":"24.974272","lng":"121.542779","ar":"北新路二段/北新路二段97巷"},{"_id":"216","iid":"600","sna":"重陽國小","sarea":"三重區","lat":"25.066245 ","lng":"121.484337 ","ar":"中正北路/三民街175巷"},{"_id":"217","iid":"601","sna":"明志國中","sarea":"三重區","lat":"25.063396","lng":"121.488982","ar":"中正北路107號"},{"_id":"218","iid":"602","sna":"三重商工","sarea":"三重區","lat":"25.068681","lng":"121.480705","ar":"中正北路/中正北路276巷"},{"_id":"219","iid":"603","sna":"捷運新莊站(1號出口)","sarea":"新莊區","lat":"25.036152 ","lng":"121.452069 ","ar":"中正路/中華路一段"},{"_id":"220","iid":"604","sna":"原興廣場","sarea":"汐止區","lat":"25.065042","lng":"121.633149","ar":"原興路/中興路150巷"},{"_id":"221","iid":"606","sna":"文化白雲公園","sarea":"汐止區","lat":"25.056875","lng":"121.655207","ar":"水源路二段42號訖水源路二段68號"},{"_id":"222","iid":"607","sna":"秀山國小","sarea":"中和區","lat":"24.996151 ","lng":"121.521988 ","ar":"更生街/自立路(西南側)"},{"_id":"223","iid":"608","sna":"捷運永安市場站","sarea":"中和區","lat":"25.001013 ","lng":"121.511588 ","ar":"中安街/中和路378巷(東南側)"},{"_id":"224","iid":"609","sna":"福和國中","sarea":"永和區","lat":"25.005952","lng":"121.520930","ar":"永貞路/永亨路(東南側)"},{"_id":"225","iid":"610","sna":"仁愛公園","sarea":"永和區","lat":"25.009838","lng":"121.505825","ar":"仁愛路/保生路"},{"_id":"226","iid":"611","sna":"中和公園","sarea":"中和區","lat":"25.000726 ","lng":"121.514350 ","ar":"安樂路/得和路(西南側)"},{"_id":"227","iid":"612","sna":"金龍公園","sarea":"汐止區","lat":"25.069473","lng":"121.631525 ","ar":"湖前街31巷2弄/湖前街31巷"},{"_id":"228","iid":"613","sna":"重陽公園","sarea":"蘆洲區","lat":"25.085688","lng":"121.483618","ar":"集賢路221巷重陽活動中心"},{"_id":"229","iid":"614","sna":"捷運三民高中站(1號出口)","sarea":"蘆洲區","lat":"25.085815 ","lng":"121.472722 ","ar":"三民路105號"},{"_id":"230","iid":"615","sna":"中原公園","sarea":"蘆洲區","lat":"25.083316 ","lng":"121.463894 ","ar":"長興路22號前通道"},{"_id":"231","iid":"616","sna":"丹鳳派出所","sarea":"新莊區","lat":"25.027694 ","lng":"121.414662 ","ar":"雙鳳路77巷丹鳳派出所前"},{"_id":"232","iid":"617","sna":"小金門友誼公園","sarea":"新店區","lat":"24.977227","lng":"121.538140","ar":"民族路/建興街"},{"_id":"233","iid":"618","sna":"中興寶橋路口","sarea":"新店區","lat":"24.976180 ","lng":"121.546870 ","ar":"中興路三段1號旁"},{"_id":"234","iid":"631","sna":"新莊棒球場","sarea":"新莊區","lat":"25.041603 ","lng":"121.446053 ","ar":"和興街75號/復興路一段23號"},{"_id":"235","iid":"637","sna":"頂溪國小","sarea":"永和區","lat":"25.015811","lng":"121.511261","ar":"文化路133號(西側)"},{"_id":"236","iid":"651","sna":"永和國小","sarea":"永和區","lat":"25.002272 ","lng":"121.517442 ","ar":"中正路390號至426號對面"},{"_id":"237","iid":"652","sna":"秀朗國小","sarea":"永和區","lat":"24.999392 ","lng":"121.522843 ","ar":"民生路15號至23號對面"},{"_id":"238","iid":"653","sna":"台北慈濟醫院","sarea":"新店區","lat":"24.985872 ","lng":"121.536887 ","ar":"建國路289號旁空地"},{"_id":"239","iid":"654","sna":"捷運頂溪站(1號出口)","sarea":"永和區","lat":"25.012176 ","lng":"121.515271 ","ar":"中興街1號對面"},{"_id":"240","iid":"655","sna":"保安永平路口","sarea":"永和區","lat":"25.012691 ","lng":"121.506471 ","ar":"保安路248號至250號對面"},{"_id":"241","iid":"656","sna":"崇光女中","sarea":"新店區","lat":"24.972127 ","lng":"121.539554 ","ar":"三民路14號至三民路18號"},{"_id":"242","iid":"657","sna":"新店高中","sarea":"新店區","lat":"24.974181 ","lng":"121.534209 ","ar":"三民路159巷/三民路108號(對面人行道)"},{"_id":"243","iid":"659","sna":"新莊文化藝術中心","sarea":"新莊區","lat":"25.047150 ","lng":"121.444453 ","ar":"中平路133號前"},{"_id":"244","iid":"660","sna":"中華中原路口","sarea":"新莊區","lat":"25.054232","lng":"121.451752","ar":"中原路/中華路二段"},{"_id":"245","iid":"662","sna":"新北高中","sarea":"三重區","lat":"25.087225 ","lng":"121.489525 ","ar":"三信路1號旁"},{"_id":"246","iid":"664","sna":"福壽公園","sarea":"新莊區","lat":"25.051829 ","lng":"121.457746 ","ar":"福壽街130號至140號(對面福壽公園)"},{"_id":"247","iid":"665","sna":"保長公園","sarea":"汐止區","lat":"25.079523 ","lng":"121.674342 ","ar":"保長路/保長路45巷"},{"_id":"248","iid":"666","sna":"新店公有中央市場","sarea":"新店區","lat":"24.975308","lng":"121.527287","ar":"中央四街64號對面"},{"_id":"249","iid":"667","sna":"永平高中","sarea":"永和區","lat":"25.010163 ","lng":"121.509358 ","ar":"永平路/永平路203巷口(靠學校圍牆路側)"},{"_id":"250","iid":"668","sna":"惠國市場","sarea":"新店區","lat":"24.970415 ","lng":"121.543384 ","ar":"中正路75巷至中正路95巷間"},{"_id":"251","iid":"669","sna":"陽光橋","sarea":"新店區","lat":"24.978494 ","lng":"121.524176 ","ar":"溪園路/中山路"},{"_id":"252","iid":"670","sna":"中興寶慶街口","sarea":"新店區","lat":"24.986942 ","lng":"121.541950 ","ar":"中興路三段/寶慶街"},{"_id":"253","iid":"671","sna":"東方科學園區","sarea":"汐止區","lat":"25.061262","lng":"121.649512","ar":"新台五路一段90-116號"},{"_id":"254","iid":"672","sna":"連興龍安路口","sarea":"汐止區","lat":"25.062989","lng":"121.654430","ar":"連興路/龍安路28巷"},{"_id":"255","iid":"673","sna":"青山國民中小學","sarea":"汐止區","lat":"25.061034","lng":"121.655586","ar":"莊敬街33號"},{"_id":"256","iid":"674","sna":"汐止區綜合運動場","sarea":"汐止區","lat":"25.066238","lng":"121.659067","ar":"汐科路/秀峰路"},{"_id":"257","iid":"675","sna":"汐止公園","sarea":"汐止區","lat":"25.067682","lng":"121.659763","ar":"大同路二段451號"},{"_id":"258","iid":"676","sna":"保順環河西路口","sarea":"永和區","lat":"25.010786","lng":"121.503376","ar":"保順環河西路口"},{"_id":"259","iid":"677","sna":"台灣科學園區","sarea":"汐止區","lat":"25.057900","lng":"121.634899","ar":"大同路一段237號前空地"},{"_id":"260","iid":"678","sna":"中正國小","sarea":"新店區","lat":"24.971496","lng":"121.536296","ar":"三民路36號-42-1號前機車格"},{"_id":"261","iid":"679","sna":"開元市民活動中心","sarea":"三重區","lat":"25.066074","lng":"121.503557","ar":"開元街58號/長元街65巷16弄對面"},{"_id":"262","iid":"680","sna":"雍和科學園區","sarea":"汐止區","lat":"25.058078","lng":"121.626018","ar":"南陽街185號"},{"_id":"263","iid":"683","sna":"二重國小","sarea":"三重區","lat":"25.065976","lng":"121.477656","ar":"頂崁街164號至188號(對面二重國小)"},{"_id":"264","iid":"684","sna":"二重國中","sarea":"三重區","lat":"25.065957","lng":"121.480465","ar":"忠孝路三段75巷1號至忠孝路三段75巷11號(對面人行道)"},{"_id":"265","iid":"686","sna":"新北市立圖書館三重分館","sarea":"三重區","lat":"25.066099","lng":"121.495529","ar":"自強路一段162號至自強路一段二弄4號(對面停車場)"},{"_id":"266","iid":"687","sna":"三張公園","sarea":"三重區","lat":"25.070507","lng":"121.490935","ar":"大智街127號至大智路137號(對面三張公園)"},{"_id":"267","iid":"692","sna":"捷運丹鳳站(1號出口)","sarea":"新莊區","lat":"25.029032","lng":"121.422799","ar":"中正路/民安路"},{"_id":"268","iid":"693","sna":"永福橋","sarea":"永和區","lat":"25.010032","lng":"121.524184","ar":"豫溪街217巷27號對面人行道"},{"_id":"269","iid":"694","sna":"中港國小","sarea":"新莊區","lat":"25.046418","lng":"121.447639","ar":"中和街62號對面"},{"_id":"270","iid":"698","sna":"六合公園","sarea":"三重區","lat":"25.069499","lng":"121.487588","ar":"自強路二段74巷27號對面"},{"_id":"271","iid":"699","sna":"正義公園","sarea":"三重區","lat":"25.068551","lng":"121.497818","ar":"文化北路101號至119號對面"},{"_id":"272","iid":"700","sna":"捷運徐匯中學站(1號出口)","sarea":"蘆洲區","lat":"25.080468","lng":"121.479852","ar":"中山一路3號(捷運徐匯中學站1號出口旁)"},{"_id":"273","iid":"701","sna":"黃城公園","sarea":"新莊區","lat":"25.052382","lng":"121.448239","ar":"新莊區中信街74號旁"},{"_id":"274","iid":"702","sna":"捷運菜寮站(3號出口)","sarea":"三重區","lat":"25.060471","lng":"121.492198","ar":"重新路三段67號旁"},{"_id":"275","iid":"703","sna":"捷運三和國中站(1號出口)","sarea":"三重區","lat":"25.075881","lng":"121.487795","ar":"三和路四段95號至97號對面(捷運三和國中站1號出口)"},{"_id":"276","iid":"704","sna":"中和國民運動中心","sarea":"中和區","lat":"24.993477","lng":"121.487692","ar":"和城路一段/中正二橋"},{"_id":"277","iid":"706","sna":"四維公園","sarea":"新莊區","lat":"25.021308","lng":"121.422185","ar":"四維路181號對面(四維活動中心出口前)"},{"_id":"278","iid":"707","sna":"蘆洲國民運動中心","sarea":"蘆洲區","lat":"25.091945","lng":"121.461613","ar":"長興路237巷/長興路"},{"_id":"279","iid":"708","sna":"和平公園","sarea":"三重區","lat":"25.070884","lng":"121.485712","ar":"忠孝路二段/忠孝路二段32巷"},{"_id":"280","iid":"709","sna":"三重綜合體育館","sarea":"三重區","lat":"25.061446","lng":"121.491926","ar":"新北大道一段1號前人行道"},{"_id":"281","iid":"710","sna":"信義公園","sarea":"三重區","lat":"25.064804","lng":"121.498749","ar":"信義西街18號對面人行道"},{"_id":"282","iid":"712","sna":"秀得里(成功路二段)","sarea":"永和區","lat":"25.000705","lng":"121.526729","ar":"成功路二段28號至34號"},{"_id":"283","iid":"713","sna":"永平公園","sarea":"蘆洲區","lat":"25.089987","lng":"121.459424","ar":"永樂街38巷42弄公園人行道(永平市場南側)"},{"_id":"284","iid":"714","sna":"永康公園","sarea":"蘆洲區","lat":"25.084764","lng":"121.458733","ar":"長安街220巷6號對面人行道"},{"_id":"285","iid":"715","sna":"頭前運動公園","sarea":"新莊區","lat":"25.052180","lng":"121.462124","ar":"頭成街165號對面人行道"},{"_id":"286","iid":"716","sna":"頭前國中","sarea":"新莊區","lat":"25.054464","lng":"121.459318","ar":"中原路3至9號對面人行道"},{"_id":"287","iid":"718","sna":"聯邦公園","sarea":"三重區","lat":"25.064447","lng":"121.483710","ar":"三民街/中華路"},{"_id":"288","iid":"719","sna":"捷運蘆洲站","sarea":"蘆洲區","lat":"25.091637","lng":"121.464031","ar":"三民路/中正路口"},{"_id":"289","iid":"722","sna":"集成成功路口","sarea":"三重區","lat":"25.051542","lng":"121.488208","ar":"集成路2號至8號前人行道"},{"_id":"290","iid":"723","sna":"板橋國民運動中心","sarea":"板橋區","lat":"25.022235","lng":"121.458152","ar":"英士路/智樂路"},{"_id":"291","iid":"724","sna":"永安公園","sarea":"板橋區","lat":"25.024786","lng":"121.477397","ar":"雙十路一段25號前人行道"},{"_id":"292","iid":"725","sna":"捷運江子翠站(3號出口)","sarea":"板橋區","lat":"25.029729","lng":"121.472359","ar":"文化路二段/雙十路二段"},{"_id":"293","iid":"726","sna":"音樂公園","sarea":"板橋區","lat":"25.028631","lng":"121.480460","ar":"大同街97號對面公園人行道"},{"_id":"294","iid":"727","sna":"捷運七張站(1號出口)","sarea":"新店區","lat":"24.974996","lng":"121.542767","ar":"北新路二段/北新路二段121巷"},{"_id":"295","iid":"728","sna":"北新國小","sarea":"新店區","lat":"24.974233","lng":"121.544428","ar":"寶橋路8號前人行道"},{"_id":"296","iid":"729","sna":"捷運新埔站(2號出口)","sarea":"板橋區","lat":"25.022095","lng":"121.467598","ar":"文化路一段318號旁廣場"},{"_id":"297","iid":"730","sna":"聯合醫院板橋院區","sarea":"板橋區","lat":"25.023832","lng":"121.457773","ar":"龍泉街131號旁人行道(立體停車場前)"},{"_id":"298","iid":"731","sna":"捷運板橋站(3號出口)","sarea":"板橋區","lat":"25.014797","lng":"121.462051","ar":"文化路一段117號對面人行道"},{"_id":"299","iid":"732","sna":"民生公園","sarea":"板橋區","lat":"25.013087","lng":"121.475894","ar":"民生路一段/民生路一段30巷"},{"_id":"300","iid":"733","sna":"新北市政府","sarea":"板橋區","lat":"25.012374","lng":"121.464224","ar":"新府路1號對面人行道"},{"_id":"301","iid":"734","sna":"捷運板橋站(1號出口)","sarea":"板橋區","lat":"25.013174","lng":"121.461900","ar":"縣民大道二段3號(秀泰影城門口)"},{"_id":"302","iid":"736","sna":"板橋地政事務所","sarea":"板橋區","lat":"25.007983","lng":"121.463387","ar":"實踐路5號對面"},{"_id":"303","iid":"737","sna":"板橋戶政事務所","sarea":"板橋區","lat":"25.012839","lng":"121.456308","ar":"中正路6號前人行道"},{"_id":"304","iid":"738","sna":"板橋和平公園","sarea":"板橋區","lat":"24.997679","lng":"121.464326","ar":"重慶路355號前廣場"},{"_id":"305","iid":"739","sna":"碧華公園","sarea":"三重區","lat":"25.083741","lng":"121.487491","ar":"溪尾街303號(對面公園)"},{"_id":"306","iid":"740","sna":"五福里(五華街)","sarea":"三重區","lat":"25.081725","lng":"121.493902","ar":"五華街64號對面人行道(碧華國中旁)"},{"_id":"307","iid":"747","sna":"同安公園","sarea":"三重區","lat":"25.057320","lng":"121.499067","ar":"正義南路/同安東街(正義南路側公園廣場)"},{"_id":"308","iid":"742","sna":"中華里(中華路二段)","sarea":"新莊區","lat":"25.045951","lng":"121.453766","ar":"中華路2段31號對面"},{"_id":"309","iid":"743","sna":"中華自治街口","sarea":"新莊區","lat":"25.047855","lng":"121.453202","ar":"中華路2段/自治街口人行道(中港大排東側)"},{"_id":"310","iid":"744","sna":"捷運府中站(3號出口)","sarea":"板橋區","lat":"25.008999","lng":"121.458776","ar":"府中路31號至53號對面"},{"_id":"311","iid":"745","sna":"捷運亞東醫院站(2號出口)","sarea":"板橋區","lat":"24.997830","lng":"121.452315","ar":"南雅南路二段122-23號‎前人行道"},{"_id":"312","iid":"746","sna":"新泰公園","sarea":"新莊區","lat":"25.037200","lng":"121.444946","ar":"建中街116巷/建中街116巷3弄"},{"_id":"313","iid":"748","sna":"上林里(環河東路一段)","sarea":"永和區","lat":"25.014999","lng":"121.520951","ar":"環河東路一段/竹林路75巷25弄"},{"_id":"314","iid":"749","sna":"進安公園","sarea":"三重區","lat":"25.086031","lng":"121.493774","ar":"仁義街258號至290號"},{"_id":"315","iid":"750","sna":"自強溪尾街口","sarea":"三重區","lat":"25.078153","lng":"121.489894","ar":"自強路4段/溪尾街"},{"_id":"316","iid":"760","sna":"捷運三重國小站","sarea":"三重區","lat":"25.070418","lng":"121.497126","ar":"仁愛街/三和路3段11巷"},{"_id":"317","iid":"752","sna":"五堵火車站","sarea":"汐止區","lat":"25.077493","lng":"121.666869","ar":"鄉長路一段人行道側"},{"_id":"318","iid":"753","sna":"捷運南勢角站1號出口","sarea":"中和區","lat":"24.990804","lng":"121.506978","ar":"捷運路131號至141號對面"},{"_id":"319","iid":"754","sna":"柳堤公園","sarea":"蘆洲區","lat":"25.087989","lng":"121.462192","ar":"長樂路125號對面公園通道"},{"_id":"320","iid":"755","sna":"新北市立圖書館總館","sarea":"板橋區","lat":"25.001583","lng":"121.455524","ar":"貴興路119巷"},{"_id":"321","iid":"757","sna":"明志國小","sarea":"泰山區","lat":"25.045729","lng":"121.426269","ar":"明志路二段324號對面人行道"},{"_id":"322","iid":"761","sna":"臺北醫院","sarea":"新莊區","lat":"25.043536","lng":"121.459772","ar":"思源路131號至137號前人行道"},{"_id":"323","iid":"763","sna":"柴埕市民活動中心","sarea":"新店區","lat":"24.966775","lng":"121.516479","ar":"安民街/安民街65巷"},{"_id":"324","iid":"764","sna":"思賢國小","sarea":"新莊區","lat":"25.046446","lng":"121.457716","ar":"福樂街66號對面"},{"_id":"325","iid":"767","sna":"新海長江路口","sarea":"板橋區","lat":"25.02853","lng":"121.457367","ar":"長江路一段/新海路"},{"_id":"326","iid":"769","sna":"捷運新埔站(4號出口)","sarea":"板橋區","lat":"25.023491","lng":"121.468559","ar":"民生路二段250號前人行道"},{"_id":"327","iid":"770","sna":"板橋仁愛公園","sarea":"板橋區","lat":"24.996430","lng":"121.459696","ar":"國慶路49巷23號對面"},{"_id":"328","iid":"773","sna":"光華東帝士","sarea":"新莊區","lat":"25.010795","lng":"121.427836","ar":"民安西路370號至376號前"},{"_id":"329","iid":"774","sna":"廣福公園","sarea":"板橋區","lat":"24.991643","lng":"121.462872","ar":"廣權路/廣和街"},{"_id":"330","iid":"775","sna":"板橋四維公園","sarea":"板橋區","lat":"25.025464","lng":"121.462633","ar":"陽明街251號至259號對面人行道"},{"_id":"331","iid":"776","sna":"捷運頂埔站(2號出口)","sarea":"土城區","lat":"24.959276","lng":"121.419008","ar":"中央路四段74號至76號對面人行道"},{"_id":"332","iid":"778","sna":"青潭國小","sarea":"新店區","lat":"24.953101","lng":"121.551813","ar":"北宜路2段149號對面"},{"_id":"333","iid":"779","sna":"金城忠義路口","sarea":"土城區","lat":"24.969399","lng":"121.440808","ar":"金城路一段/忠義路"},{"_id":"334","iid":"782","sna":"中山國中","sarea":"板橋區","lat":"25.018559","lng":"121.467509","ar":"文化路一段188巷56號"},{"_id":"335","iid":"783","sna":"捷運土城站(2號出口)","sarea":"土城區","lat":"24.972631","lng":"121.443563","ar":"金城路1段/和平路"},{"_id":"336","iid":"784","sna":"四川遠東路口","sarea":"板橋區","lat":"24.998003","lng":"121.457355","ar":"遠東路5號前人行道(四川路側)"},{"_id":"337","iid":"786","sna":"中正橋","sarea":"永和區","lat":"25.017757","lng":"121.516809","ar":"環河東路一段/光復街"},{"_id":"338","iid":"787","sna":"北港國小","sarea":"汐止區","lat":"25.089027","lng":"121.645946","ar":"汐萬路二段279號"},{"_id":"339","iid":"788","sna":"捷運新店站","sarea":"新店區","lat":"24.958605","lng":"121.538659","ar":"中興路一段34號前(高架橋下停車場)"},{"_id":"340","iid":"790","sna":"新樹公園","sarea":"新莊區","lat":"25.003383","lng":"121.433154","ar":"新樹路627號對面"},{"_id":"341","iid":"791","sna":"中和環球購物中心","sarea":"中和區","lat":"25.006367","lng":"121.474223","ar":"中山路三段130號"},{"_id":"342","iid":"795","sna":"國光里(國光路)","sarea":"板橋區","lat":"25.017755","lng":"121.458308","ar":"國光路76號旁"},{"_id":"343","iid":"796","sna":"民生長江路口","sarea":"板橋區","lat":"25.030904","lng":"121.463596","ar":"民生路三段/長江路一段(64高架橋下方)"},{"_id":"344","iid":"799","sna":"華福市民活動中心","sarea":"中和區","lat":"24.995482","lng":"121.467525","ar":"民德路296號對面停車格位"},{"_id":"345","iid":"801","sna":"建福公園","sarea":"新莊區","lat":"25.027694","lng":"121.426685","ar":"建福路/建福路49巷"},{"_id":"346","iid":"803","sna":"金城延和路口","sarea":"土城區","lat":"24.989155","lng":"121.470454","ar":"金城路三段/延和路(土城台電變電站)"},{"_id":"347","iid":"805","sna":"樹林火車站(後站)","sarea":"樹林區","lat":"24.992553","lng":"121.424652","ar":"後站街6巷11號對面"},{"_id":"348","iid":"806","sna":"文林國小","sarea":"樹林區","lat":"24.997856","lng":"121.426360","ar":"千歲街59號"},{"_id":"349","iid":"809","sna":"光華公園","sarea":"樹林區","lat":"25.005412","lng":"121.413157","ar":"保安街2段259號對面"},{"_id":"350","iid":"810","sna":"樹林大安活動中心","sarea":"樹林區","lat":"24.986391","lng":"121.414770","ar":"備前街/復興路372巷口"},{"_id":"351","iid":"811","sna":"三民中山一路口","sarea":"蘆洲區","lat":"25.082229","lng":"121.476004","ar":"三民路8號前"},{"_id":"352","iid":"812","sna":"義學國小","sarea":"泰山區","lat":"25.051762","lng":"121.431669","ar":"民生路33號對面人行道"},{"_id":"353","iid":"814","sna":"板林溪北路口","sarea":"板橋區","lat":"24.990555","lng":"121.426350","ar":"板林路/溪北路"},{"_id":"354","iid":"815","sna":"新北市藝文中心","sarea":"板橋區","lat":"25.026542","lng":"121.472279","ar":"莊敬路/文化路2段182巷"},{"_id":"355","iid":"816","sna":"大安中央路口","sarea":"土城區","lat":"24.965619","lng":"121.432610","ar":"大安路/中央路三段"},{"_id":"356","iid":"817","sna":"中和地政事務所","sarea":"中和區","lat":"24.990393","lng":"121.502397","ar":"復興路280號"},{"_id":"357","iid":"819","sna":"同興公園","sarea":"泰山區","lat":"25.055188","lng":"121.432128","ar":"仁義路15號對面"},{"_id":"358","iid":"820","sna":"新五泰國民運動中心","sarea":"泰山區","lat":"25.055865","lng":"121.434262","ar":"全興路214號對面"},{"_id":"359","iid":"821","sna":"溪洲公園停車場","sarea":"板橋區","lat":"24.986723","lng":"121.426820","ar":"溪崑二街145號"},{"_id":"360","iid":"822","sna":"崑崙公園","sarea":"板橋區","lat":"24.993406","lng":"121.429636","ar":"大觀路三段212巷70號對面"},{"_id":"361","iid":"823","sna":"捷運海山站(3號出口)","sarea":"土城區","lat":"24.986923","lng":"121.449335","ar":"土城區海山路46號對面機車格位"},{"_id":"362","iid":"825","sna":"潤泰社區","sarea":"板橋區","lat":"25.017953","lng":"121.479375","ar":"板橋區三民路二段35巷口"},{"_id":"363","iid":"828","sna":"板橋國中","sarea":"板橋區","lat":"25.024903","lng":"121.454310","ar":"中正路441號前人行道"},{"_id":"364","iid":"829","sna":"永豐公園活動中心","sarea":"板橋區","lat":"25.021127","lng":"121.476853","ar":"板橋區永豐街221號"},{"_id":"365","iid":"831","sna":"鶯歌國中","sarea":"鶯歌區","lat":"24.951734","lng":"121.342963","ar":"建國路420號對面人行道"},{"_id":"366","iid":"834","sna":"鶯歌火車站(仁愛路)","sarea":"鶯歌區","lat":"24.955591","lng":"121.354376","ar":"仁愛路55號對側人行道"},{"_id":"367","iid":"835","sna":"建國育英路口","sarea":"鶯歌區","lat":"24.952761","lng":"121.347193","ar":"鶯歌區建國路/育英街口機車停車場內"},{"_id":"368","iid":"836","sna":"鶯歌陶瓷老街","sarea":"鶯歌區","lat":"24.952226","lng":"121.351035","ar":"鶯歌區尖山埔路/國慶街(停車場內)"}]}}